[
  {
    "county": "Nairobi",
    "name": "Nairobi Quarry",
    "coordinates": [-1.2921, 36.8219],
    "mineral": "Building Stone",
    "description": "Quarry supplying construction stones to the capital."
  },
  {
    "county": "Nairobi",
    "name": "Clay Extraction - Ruai",
    "coordinates": [-1.3000, 36.9000],
    "mineral": "Clay",
    "description": "Clay site supporting brick-making industries."
  },

  {
    "county": "Mombasa",
    "name": "Coral Limestone Site - Likoni",
    "coordinates": [-4.0631, 39.6728],
    "mineral": "Limestone",
    "description": "Coral limestone mined for cement manufacturing."
  },
  {
    "county": "Mombasa",
    "name": "Salt Pans - Port Reitz",
    "coordinates": [-4.0500, 39.6500],
    "mineral": "Salt",
    "description": "Coastal salt extraction site."
  },

  {
    "county": "Kitui",
    "name": "Coal Mining Site - Mui Basin",
    "coordinates": [-1.3745, 38.0103],
    "mineral": "Coal",
    "description": "Large coal deposits discovered in the Mui Basin."
  },
  {
    "county": "Kitui",
    "name": "Limestone Quarry - Kanziko",
    "coordinates": [-1.5123, 38.1672],
    "mineral": "Limestone",
    "description": "Limestone used for cement production."
  },

  {
    "county": "Turkana",
    "name": "Gold Panning - Lodwar",
    "coordinates": [3.1200, 35.6000],
    "mineral": "Gold",
    "description": "Artisanal gold panning in riverbeds."
  },
  {
    "county": "Turkana",
    "name": "Gypsum Site - Lokichogio",
    "coordinates": [4.2000, 34.3500],
    "mineral": "Gypsum",
    "description": "Deposits of gypsum for cement industries."
  },

  {
    "county": "Kisumu",
    "name": "Kisian Quarry",
    "coordinates": [-0.0917, 34.7679],
    "mineral": "Building Stone",
    "description": "Stone quarry supporting local construction."
  },
  {
    "county": "Kisumu",
    "name": "Sand Harvesting - Nyando",
    "coordinates": [-0.1500, 34.9000],
    "mineral": "Sand",
    "description": "River sand for local construction."
  },

  {
    "county": "Machakos",
    "name": "Mwala Quarry",
    "coordinates": [-1.5167, 37.2667],
    "mineral": "Granite",
    "description": "Granite quarry for road and building projects."
  },
  {
    "county": "Machakos",
    "name": "Clay Site - Athi River",
    "coordinates": [-1.4500, 37.0167],
    "mineral": "Clay",
    "description": "Clay mining for cement and brick-making."
  }
]
